[
  {
    "city": "Bogotá", 
    "lat": "4.7111", 
    "lng": "-74.0722", 
    "country": "Colombia", 
    "iso2": "CO", 
    "admin_name": "Bogotá", 
    "capital": "primary", 
    "population": "7968095", 
    "population_proper": "7743955"
  }, 
  {
    "city": "Medellín", 
    "lat": "6.2308", 
    "lng": "-75.5906", 
    "country": "Colombia", 
    "iso2": "CO", 
    "admin_name": "Antioquia", 
    "capital": "admin", 
    "population": "2529403", 
    "population_proper": "2529403"
  }, 
  {
    "city": "Cali", 
    "lat": "3.4206", 
    "lng": "-76.5222", 
    "country": "Colombia", 
    "iso2": "CO", 
    "admin_name": "Valle del Cauca", 
    "capital": "admin", 
    "population": "2471474", 
    "population_proper": "2471474"
  }, 
  {
    "city": "Barranquilla", 
    "lat": "10.9833", 
    "lng": "-74.8019", 
    "country": "Colombia", 
    "iso2": "CO", 
    "admin_name": "Atlántico", 
    "capital": "admin", 
    "population": "1326588", 
    "population_proper": "1274250"
  }, 
  {
    "city": "Cartagena", 
    "lat": "10.4000", 
    "lng": "-75.5000", 
    "country": "Colombia", 
    "iso2": "CO", 
    "admin_name": "Bolívar", 
    "capital": "admin", 
    "population": "914552", 
    "population_proper": "914552"
  }, 
  {
    "city": "Bucaramanga", 
    "lat": "7.1333", 
    "lng": "-73.0000", 
    "country": "Colombia", 
    "iso2": "CO", 
    "admin_name": "Santander", 
    "capital": "admin", 
    "population": "893040", 
    "population_proper": "614860"
  }, 
  {
    "city": "Cúcuta", 
    "lat": "7.8942", 
    "lng": "-72.5039", 
    "country": "Colombia", 
    "iso2": "CO", 
    "admin_name": "Norte de Santander", 
    "capital": "admin", 
    "population": "806378", 
    "population_proper": "806378"
  }, 
  {
    "city": "Palermo", 
    "lat": "2.8917", 
    "lng": "-75.4375", 
    "country": "Colombia", 
    "iso2": "CO", 
    "admin_name": "Huila", 
    "capital": "minor", 
    "population": "800000", 
    "population_proper": "800000"
  }, 
  {
    "city": "Soledad", 
    "lat": "10.9167", 
    "lng": "-74.7500", 
    "country": "Colombia", 
    "iso2": "CO", 
    "admin_name": "Atlántico", 
    "capital": "minor", 
    "population": "676014", 
    "population_proper": "676014"
  }, 
  {
    "city": "Villavicencio", 
    "lat": "4.1500", 
    "lng": "-73.6333", 
    "country": "Colombia", 
    "iso2": "CO", 
    "admin_name": "Meta", 
    "capital": "admin", 
    "population": "664148", 
    "population_proper": "664148"
  }, 
  {
    "city": "Pereira", 
    "lat": "4.8143", 
    "lng": "-75.6946", 
    "country": "Colombia", 
    "iso2": "CO", 
    "admin_name": "Risaralda", 
    "capital": "admin", 
    "population": "590554", 
    "population_proper": "590554"
  }, 
  {
    "city": "Bello", 
    "lat": "6.3333", 
    "lng": "-75.5667", 
    "country": "Colombia", 
    "iso2": "CO", 
    "admin_name": "Antioquia", 
    "capital": "minor", 
    "population": "561955", 
    "population_proper": "561955"
  }, 
  {
    "city": "Valledupar", 
    "lat": "10.4833", 
    "lng": "-73.2500", 
    "country": "Colombia", 
    "iso2": "CO", 
    "admin_name": "Cesar", 
    "capital": "admin", 
    "population": "544134", 
    "population_proper": "544134"
  }, 
  {
    "city": "Ibagué", 
    "lat": "4.4333", 
    "lng": "-75.2333", 
    "country": "Colombia", 
    "iso2": "CO", 
    "admin_name": "Tolima", 
    "capital": "admin", 
    "population": "541101", 
    "population_proper": "541101"
  }, 
  {
    "city": "Montería", 
    "lat": "8.7500", 
    "lng": "-75.8833", 
    "country": "Colombia", 
    "iso2": "CO", 
    "admin_name": "Córdoba", 
    "capital": "admin", 
    "population": "523150", 
    "population_proper": "523150"
  }, 
  {
    "city": "Soacha", 
    "lat": "4.5872", 
    "lng": "-74.2214", 
    "country": "Colombia", 
    "iso2": "CO", 
    "admin_name": "Cundinamarca", 
    "capital": "minor", 
    "population": "522442", 
    "population_proper": "522442"
  }, 
  {
    "city": "Santa Marta", 
    "lat": "11.2419", 
    "lng": "-74.2053", 
    "country": "Colombia", 
    "iso2": "CO", 
    "admin_name": "Magdalena", 
    "capital": "admin", 
    "population": "515556", 
    "population_proper": "515556"
  }, 
  {
    "city": "Manizales", 
    "lat": "5.1000", 
    "lng": "-75.5500", 
    "country": "Colombia", 
    "iso2": "CO", 
    "admin_name": "Caldas", 
    "capital": "admin", 
    "population": "454494", 
    "population_proper": "454494"
  }, 
  {
    "city": "Buenaventura", 
    "lat": "3.8772", 
    "lng": "-77.0267", 
    "country": "Colombia", 
    "iso2": "CO", 
    "admin_name": "Valle del Cauca", 
    "capital": "minor", 
    "population": "423927", 
    "population_proper": "423927"
  }, 
  {
    "city": "Pasto", 
    "lat": "1.2078", 
    "lng": "-77.2772", 
    "country": "Colombia", 
    "iso2": "CO", 
    "admin_name": "Nariño", 
    "capital": "admin", 
    "population": "410835", 
    "population_proper": "410835"
  }, 
  {
    "city": "Neiva", 
    "lat": "2.9345", 
    "lng": "-75.2809", 
    "country": "Colombia", 
    "iso2": "CO", 
    "admin_name": "Huila", 
    "capital": "admin", 
    "population": "380019", 
    "population_proper": "380019"
  }, 
  {
    "city": "Palmira", 
    "lat": "3.5833", 
    "lng": "-76.2500", 
    "country": "Colombia", 
    "iso2": "CO", 
    "admin_name": "Valle del Cauca", 
    "capital": "minor", 
    "population": "358895", 
    "population_proper": "358895"
  }, 
  {
    "city": "Fontibón", 
    "lat": "4.6786", 
    "lng": "-74.1411", 
    "country": "Colombia", 
    "iso2": "CO", 
    "admin_name": "Bogotá", 
    "capital": "", 
    "population": "317179", 
    "population_proper": "317179"
  }, 
  {
    "city": "Usme", 
    "lat": "4.4464", 
    "lng": "-74.1522", 
    "country": "Colombia", 
    "iso2": "CO", 
    "admin_name": "Bogotá", 
    "capital": "", 
    "population": "314431", 
    "population_proper": "314431"
  }, 
  {
    "city": "Armenia", 
    "lat": "4.5300", 
    "lng": "-75.6800", 
    "country": "Colombia", 
    "iso2": "CO", 
    "admin_name": "Quindío", 
    "capital": "admin", 
    "population": "301226", 
    "population_proper": "301226"
  }, 
  {
    "city": "Popayán", 
    "lat": "2.4542", 
    "lng": "-76.6092", 
    "country": "Colombia", 
    "iso2": "CO", 
    "admin_name": "Cauca", 
    "capital": "admin", 
    "population": "300837", 
    "population_proper": "300837"
  }, 
  {
    "city": "Floridablanca", 
    "lat": "7.2167", 
    "lng": "-73.0667", 
    "country": "Colombia", 
    "iso2": "CO", 
    "admin_name": "Santander", 
    "capital": "minor", 
    "population": "295724", 
    "population_proper": "267170"
  }, 
  {
    "city": "Sincelejo", 
    "lat": "9.2950", 
    "lng": "-75.3961", 
    "country": "Colombia", 
    "iso2": "CO", 
    "admin_name": "Sucre", 
    "capital": "admin", 
    "population": "286716", 
    "population_proper": "286716"
  }, 
  {
    "city": "Itagüí", 
    "lat": "6.1667", 
    "lng": "-75.6167", 
    "country": "Colombia", 
    "iso2": "CO", 
    "admin_name": "Antioquia", 
    "capital": "minor", 
    "population": "276744", 
    "population_proper": "276744"
  }, 
  {
    "city": "Envigado", 
    "lat": "6.1667", 
    "lng": "-75.5667", 
    "country": "Colombia", 
    "iso2": "CO", 
    "admin_name": "Antioquia", 
    "capital": "minor", 
    "population": "228848", 
    "population_proper": "228848"
  }, 
  {
    "city": "Tuluá", 
    "lat": "4.0833", 
    "lng": "-76.2000", 
    "country": "Colombia", 
    "iso2": "CO", 
    "admin_name": "Valle del Cauca", 
    "capital": "minor", 
    "population": "219138", 
    "population_proper": "219138"
  }, 
  {
    "city": "Tumaco", 
    "lat": "1.8067", 
    "lng": "-78.7647", 
    "country": "Colombia", 
    "iso2": "CO", 
    "admin_name": "Nariño", 
    "capital": "minor", 
    "population": "212692", 
    "population_proper": "212692"
  }, 
  {
    "city": "Barrancabermeja", 
    "lat": "7.0667", 
    "lng": "-73.8500", 
    "country": "Colombia", 
    "iso2": "CO", 
    "admin_name": "Santander", 
    "capital": "minor", 
    "population": "203537", 
    "population_proper": "203537"
  }, 
  {
    "city": "Uripa", 
    "lat": "11.9167", 
    "lng": "-72.0000", 
    "country": "Colombia", 
    "iso2": "CO", 
    "admin_name": "La Guajira", 
    "capital": "", 
    "population": "198890", 
    "population_proper": "198890"
  }, 
  {
    "city": "Zipaquirá", 
    "lat": "5.0333", 
    "lng": "-74.0000", 
    "country": "Colombia", 
    "iso2": "CO", 
    "admin_name": "Cundinamarca", 
    "capital": "minor", 
    "population": "196409", 
    "population_proper": "196409"
  }, 
  {
    "city": "Florencia", 
    "lat": "1.6139", 
    "lng": "-75.6128", 
    "country": "Colombia", 
    "iso2": "CO", 
    "admin_name": "Caquetá", 
    "capital": "admin", 
    "population": "191867", 
    "population_proper": "191867"
  }, 
  {
    "city": "Turbo", 
    "lat": "8.1000", 
    "lng": "-76.7333", 
    "country": "Colombia", 
    "iso2": "CO", 
    "admin_name": "Antioquia", 
    "capital": "minor", 
    "population": "181000", 
    "population_proper": "181000"
  }, 
  {
    "city": "Santander de Quilichao", 
    "lat": "3.0167", 
    "lng": "-76.4833", 
    "country": "Colombia", 
    "iso2": "CO", 
    "admin_name": "Cauca", 
    "capital": "minor", 
    "population": "180000", 
    "population_proper": "116535"
  }, 
  {
    "city": "Dosquebradas", 
    "lat": "4.8333", 
    "lng": "-75.6833", 
    "country": "Colombia", 
    "iso2": "CO", 
    "admin_name": "Risaralda", 
    "capital": "minor", 
    "population": "179301", 
    "population_proper": "179301"
  }, 
  {
    "city": "Fusagasugá", 
    "lat": "4.3452", 
    "lng": "-74.3618", 
    "country": "Colombia", 
    "iso2": "CO", 
    "admin_name": "Cundinamarca", 
    "capital": "minor", 
    "population": "170241", 
    "population_proper": "170241"
  }, 
  {
    "city": "Ríohacha", 
    "lat": "11.5442", 
    "lng": "-72.9069", 
    "country": "Colombia", 
    "iso2": "CO", 
    "admin_name": "La Guajira", 
    "capital": "admin", 
    "population": "167865", 
    "population_proper": "167865"
  }, 
  {
    "city": "Ipiales", 
    "lat": "0.8303", 
    "lng": "-77.6444", 
    "country": "Colombia", 
    "iso2": "CO", 
    "admin_name": "Nariño", 
    "capital": "minor", 
    "population": "166079", 
    "population_proper": "166079"
  }, 
  {
    "city": "Tunja", 
    "lat": "5.5333", 
    "lng": "-73.3667", 
    "country": "Colombia", 
    "iso2": "CO", 
    "admin_name": "Boyacá", 
    "capital": "admin", 
    "population": "163894", 
    "population_proper": "68905"
  }, 
  {
    "city": "Girón", 
    "lat": "7.0708", 
    "lng": "-73.1731", 
    "country": "Colombia", 
    "iso2": "CO", 
    "admin_name": "Santander", 
    "capital": "minor", 
    "population": "160403", 
    "population_proper": "160403"
  }, 
  {
    "city": "Piedecuesta", 
    "lat": "7.0833", 
    "lng": "-73.0000", 
    "country": "Colombia", 
    "iso2": "CO", 
    "admin_name": "Santander", 
    "capital": "minor", 
    "population": "150483", 
    "population_proper": "117364"
  }, 
  {
    "city": "Facatativá", 
    "lat": "4.8167", 
    "lng": "-74.3667", 
    "country": "Colombia", 
    "iso2": "CO", 
    "admin_name": "Cundinamarca", 
    "capital": "minor", 
    "population": "145080", 
    "population_proper": "117133"
  }, 
  {
    "city": "Cartago", 
    "lat": "4.7000", 
    "lng": "-75.9167", 
    "country": "Colombia", 
    "iso2": "CO", 
    "admin_name": "Valle del Cauca", 
    "capital": "minor", 
    "population": "142902", 
    "population_proper": "142902"
  }, 
  {
    "city": "Malambo", 
    "lat": "10.8500", 
    "lng": "-74.7500", 
    "country": "Colombia", 
    "iso2": "CO", 
    "admin_name": "Atlántico", 
    "capital": "minor", 
    "population": "139566", 
    "population_proper": "139566"
  }, 
  {
    "city": "Rionegro", 
    "lat": "6.1535", 
    "lng": "-75.3743", 
    "country": "Colombia", 
    "iso2": "CO", 
    "admin_name": "Antioquia", 
    "capital": "minor", 
    "population": "135465", 
    "population_proper": "135465"
  }, 
  {
    "city": "Pitalito", 
    "lat": "1.8989", 
    "lng": "-76.0419", 
    "country": "Colombia", 
    "iso2": "CO", 
    "admin_name": "Huila", 
    "capital": "minor", 
    "population": "133205", 
    "population_proper": "133205"
  }, 
  {
    "city": "Quibdó", 
    "lat": "5.6922", 
    "lng": "-76.6581", 
    "country": "Colombia", 
    "iso2": "CO", 
    "admin_name": "Chocó", 
    "capital": "admin", 
    "population": "130825", 
    "population_proper": "130825"
  }, 
  {
    "city": "Jamundí", 
    "lat": "3.2667", 
    "lng": "-76.5500", 
    "country": "Colombia", 
    "iso2": "CO", 
    "admin_name": "Valle del Cauca", 
    "capital": "minor", 
    "population": "130114", 
    "population_proper": "96993"
  }, 
  {
    "city": "Girardot", 
    "lat": "4.3050", 
    "lng": "-74.8017", 
    "country": "Colombia", 
    "iso2": "CO", 
    "admin_name": "Cundinamarca", 
    "capital": "minor", 
    "population": "129834", 
    "population_proper": "129834"
  }, 
  {
    "city": "Ciénaga", 
    "lat": "11.0069", 
    "lng": "-74.2500", 
    "country": "Colombia", 
    "iso2": "CO", 
    "admin_name": "Magdalena", 
    "capital": "minor", 
    "population": "129414", 
    "population_proper": "129414"
  }, 
  {
    "city": "Guadalajara de Buga", 
    "lat": "3.9000", 
    "lng": "-76.3019", 
    "country": "Colombia", 
    "iso2": "CO", 
    "admin_name": "Valle del Cauca", 
    "capital": "minor", 
    "population": "128945", 
    "population_proper": "128945"
  }, 
  {
    "city": "Mosquera", 
    "lat": "4.7078", 
    "lng": "-74.2328", 
    "country": "Colombia", 
    "iso2": "CO", 
    "admin_name": "Cundinamarca", 
    "capital": "minor", 
    "population": "128012", 
    "population_proper": "91282"
  }, 
  {
    "city": "Duitama", 
    "lat": "5.8333", 
    "lng": "-73.0167", 
    "country": "Colombia", 
    "iso2": "CO", 
    "admin_name": "Boyacá", 
    "capital": "minor", 
    "population": "126670", 
    "population_proper": "126670"
  }, 
  {
    "city": "Chía", 
    "lat": "4.8500", 
    "lng": "-74.0500", 
    "country": "Colombia", 
    "iso2": "CO", 
    "admin_name": "Cundinamarca", 
    "capital": "minor", 
    "population": "124309", 
    "population_proper": "97896"
  }, 
  {
    "city": "Magangué", 
    "lat": "9.2500", 
    "lng": "-74.7667", 
    "country": "Colombia", 
    "iso2": "CO", 
    "admin_name": "Bolívar", 
    "capital": "minor", 
    "population": "123906", 
    "population_proper": "123906"
  }, 
  {
    "city": "Maicao", 
    "lat": "11.3778", 
    "lng": "-72.2389", 
    "country": "Colombia", 
    "iso2": "CO", 
    "admin_name": "La Guajira", 
    "capital": "minor", 
    "population": "123757", 
    "population_proper": "123757"
  }, 
  {
    "city": "Apartadó", 
    "lat": "7.8833", 
    "lng": "-76.6333", 
    "country": "Colombia", 
    "iso2": "CO", 
    "admin_name": "Antioquia", 
    "capital": "minor", 
    "population": "121003", 
    "population_proper": "121003"
  }, 
  {
    "city": "Uribia", 
    "lat": "11.9167", 
    "lng": "-72.0000", 
    "country": "Colombia", 
    "iso2": "CO", 
    "admin_name": "La Guajira", 
    "capital": "minor", 
    "population": "117674", 
    "population_proper": "117674"
  }, 
  {
    "city": "Ocaña", 
    "lat": "8.2333", 
    "lng": "-73.3500", 
    "country": "Colombia", 
    "iso2": "CO", 
    "admin_name": "Norte de Santander", 
    "capital": "minor", 
    "population": "116232", 
    "population_proper": "90037"
  }, 
  {
    "city": "Sogamoso", 
    "lat": "5.7167", 
    "lng": "-72.9208", 
    "country": "Colombia", 
    "iso2": "CO", 
    "admin_name": "Boyacá", 
    "capital": "minor", 
    "population": "116031", 
    "population_proper": "114486"
  }, 
  {
    "city": "Turbaco", 
    "lat": "10.3500", 
    "lng": "-75.3333", 
    "country": "Colombia", 
    "iso2": "CO", 
    "admin_name": "Bolívar", 
    "capital": "minor", 
    "population": "115000", 
    "population_proper": "115000"
  }, 
  {
    "city": "Madrid", 
    "lat": "4.7344", 
    "lng": "-74.2683", 
    "country": "Colombia", 
    "iso2": "CO", 
    "admin_name": "Cundinamarca", 
    "capital": "minor", 
    "population": "112254", 
    "population_proper": "112254"
  }, 
  {
    "city": "Aguachica", 
    "lat": "8.3167", 
    "lng": "-73.6333", 
    "country": "Colombia", 
    "iso2": "CO", 
    "admin_name": "Cesar", 
    "capital": "minor", 
    "population": "109621", 
    "population_proper": "109621"
  }, 
  {
    "city": "Yopal", 
    "lat": "5.3500", 
    "lng": "-72.4100", 
    "country": "Colombia", 
    "iso2": "CO", 
    "admin_name": "Casanare", 
    "capital": "admin", 
    "population": "106822", 
    "population_proper": "106822"
  }, 
  {
    "city": "Sabanalarga", 
    "lat": "6.8500", 
    "lng": "-75.8167", 
    "country": "Colombia", 
    "iso2": "CO", 
    "admin_name": "Antioquia", 
    "capital": "minor", 
    "population": "100049", 
    "population_proper": "100049"
  }, 
  {
    "city": "Arauca", 
    "lat": "7.0903", 
    "lng": "-70.7617", 
    "country": "Colombia", 
    "iso2": "CO", 
    "admin_name": "Arauca", 
    "capital": "admin", 
    "population": "96814", 
    "population_proper": "96814"
  }, 
  {
    "city": "Funza", 
    "lat": "4.7167", 
    "lng": "-74.2167", 
    "country": "Colombia", 
    "iso2": "CO", 
    "admin_name": "Cundinamarca", 
    "capital": "minor", 
    "population": "90671", 
    "population_proper": "80937"
  }, 
  {
    "city": "Sabaneta", 
    "lat": "6.1500", 
    "lng": "-75.6000", 
    "country": "Colombia", 
    "iso2": "CO", 
    "admin_name": "Antioquia", 
    "capital": "minor", 
    "population": "82375", 
    "population_proper": "82375"
  }, 
  {
    "city": "Copacabana", 
    "lat": "6.3333", 
    "lng": "-75.5000", 
    "country": "Colombia", 
    "iso2": "CO", 
    "admin_name": "Antioquia", 
    "capital": "minor", 
    "population": "73574", 
    "population_proper": "73574"
  }, 
  {
    "city": "San Andrés", 
    "lat": "12.5847", 
    "lng": "-81.7006", 
    "country": "Colombia", 
    "iso2": "CO", 
    "admin_name": "San Andrés y Providencia", 
    "capital": "admin", 
    "population": "71946", 
    "population_proper": "71946"
  }, 
  {
    "city": "La Estrella", 
    "lat": "6.1667", 
    "lng": "-75.6667", 
    "country": "Colombia", 
    "iso2": "CO", 
    "admin_name": "Antioquia", 
    "capital": "minor", 
    "population": "71545", 
    "population_proper": "71545"
  }, 
  {
    "city": "San José del Guaviare", 
    "lat": "2.5667", 
    "lng": "-72.6333", 
    "country": "Colombia", 
    "iso2": "CO", 
    "admin_name": "Guaviare", 
    "capital": "admin", 
    "population": "68878", 
    "population_proper": "68878"
  }, 
  {
    "city": "Mocoa", 
    "lat": "1.1500", 
    "lng": "-76.6475", 
    "country": "Colombia", 
    "iso2": "CO", 
    "admin_name": "Putumayo", 
    "capital": "admin", 
    "population": "56398", 
    "population_proper": "56398"
  }, 
  {
    "city": "Cajicá", 
    "lat": "4.9167", 
    "lng": "-74.0333", 
    "country": "Colombia", 
    "iso2": "CO", 
    "admin_name": "Cundinamarca", 
    "capital": "minor", 
    "population": "54111", 
    "population_proper": "44721"
  }, 
  {
    "city": "La Jagua de Ibirico", 
    "lat": "9.5667", 
    "lng": "-73.3333", 
    "country": "Colombia", 
    "iso2": "CO", 
    "admin_name": "Cesar", 
    "capital": "minor", 
    "population": "46722", 
    "population_proper": "46722"
  }, 
  {
    "city": "Leticia", 
    "lat": "-4.2167", 
    "lng": "-69.9333", 
    "country": "Colombia", 
    "iso2": "CO", 
    "admin_name": "Amazonas", 
    "capital": "admin", 
    "population": "33503", 
    "population_proper": "32450"
  }, 
  {
    "city": "La Virginia", 
    "lat": "4.9167", 
    "lng": "-75.8333", 
    "country": "Colombia", 
    "iso2": "CO", 
    "admin_name": "Risaralda", 
    "capital": "minor", 
    "population": "32330", 
    "population_proper": "32330"
  }, 
  {
    "city": "Mitú", 
    "lat": "1.1983", 
    "lng": "-70.1733", 
    "country": "Colombia", 
    "iso2": "CO", 
    "admin_name": "Vaupés", 
    "capital": "admin", 
    "population": "28382", 
    "population_proper": "28382"
  }, 
  {
    "city": "Inírida", 
    "lat": "3.8653", 
    "lng": "-67.9239", 
    "country": "Colombia", 
    "iso2": "CO", 
    "admin_name": "Guainía", 
    "capital": "admin", 
    "population": "20279", 
    "population_proper": "19816"
  }, 
  {
    "city": "Puerto Carreño", 
    "lat": "6.1903", 
    "lng": "-67.4836", 
    "country": "Colombia", 
    "iso2": "CO", 
    "admin_name": "Vichada", 
    "capital": "admin", 
    "population": "16763", 
    "population_proper": "16763"
  }
]